assetId,assetName,missingDataRate,1,2,3,4,5,6,7,81,82,83,9,10,11,12,13,14,Proximity to public transport infrastructure,Proximity of resources,Accessibility by car,Proximity to metropolitan center,Air quality,Safety of the area,Noise prevention (Peacefulness),Security of natural environment,"Security of technological, industrial and mining environment",Prestige of the building's location,Stability of competition,Attractiveness of neighbourhood,market,floorArea,propertyType,propertySubType,vintageModel,status,cause,version,external,ipc,streetNumber,street,zipCode,city,state,country,manualAddress,latitude,longitude,transactionType,value,transactionDate,year,floorVacancyRate,tenantStatus,nature,transactionShare,source,cartodb_id
id_1,"53-55 Rue Jean Jaurès, 59000 Lille",0,12,23,31,41,52,,73,811,821,831,92,102,111,122,131,141,"4,33674091","4,587178807","3,90847248","3,944922168","4,595206021","5,071736156","3,930077715","6,590642051","7,213986061","5,365918972","3,99048","4,403188397",Lille office market,2647,OFFICES,STANDARD,O2019,ACTUAL,INITIAL,V0,Internal,,53-55,Rue Jean Jaurès,59000,Lille,,France,,50.62025,3.07544,SALE,2 000 000,2022-01-01,2022,"0,16",MULTI_TENANT,TRANSACTION,,,
id_2,"159 bis avenue de la Marne, 59700 Marcq-en-Barœul",0,12,,31,41,52,62,72,811,821,831,92,102,112,122,131,141,"4,204809386","3,914886693","3,300971704","3,382875685","4,771228885","5,551587365","3,029182399","6,569595003","7,135772986","5,092342939","3,99048","4,342582184",Lille office market,2900,OFFICES,STANDARD,O2019,ACTUAL,INITIAL,V0,Internal,,159,bis avenue de la Marne,59700,Marcq-en-Barœul,,France,,50.68009,3.11058,SALE,5 000 000,2022-05-01,2022,"0,15",MULTI_TENANT,TRANSACTION,,,
id_3,"46 rue des Fusillés, 59491 Villeneuve-d'Ascq",0,12,,33,41,52,62,72,812,821,832,91,102,112,122,131,141,"3,881356442","3,939544087","3,397201062","3,462465994","4,77812164","5,575443086","3,029264873","6,570634193","7,149179511","5,132293673","3,99048","4,34602637",Lille office market,4442,OFFICES,STANDARD,O2019,ACTUAL,INITIAL,V0,Internal,,46,rue des Fusillés,59491,Villeneuve-d'Ascq,,France,,50.61757,3.14608,SALE,14 100 000,2022-10-01,2022,0,SINGLE_TENANT,TRANSACTION,,,
id_4,"6 impasse Alice Guy, 31000 Toulouse",0,12,23,34,43,52,62,72,812,821,831,91,102,112,121,131,141,"3,681635901","4,627021999","2,598772313","4,033130272","4,655207348","5,023725071","1,206044567","6,570306242","7,233093186","5,571665092","3,99048","4,319258051",Toulouse office market,21092,OFFICES,STANDARD,O2019,ACTUAL,INITIAL,V0,Internal,,6,impasse Alice Guy,31000,Toulouse,,France,,43.60005,1.36259,SALE,50 000 000,2022-07-01,2022,0,MULTI_TENANT,TRANSACTION,,,
id_5,"7-8 esplanade Compans Caffarelli, 31000 Toulouse",0,13,,32,42,54,63,71,812,821,831,91,102,111,121,131,141,"5,703562093","5,038551089","2,41666281","4,436633262","4,409372638","4,794385867","1,157515371","6,504870432","7,263682361","5,696917112","3,99048","4,479666227",Toulouse office market,8769,OFFICES,TOUR_IGH,O2019,ACTUAL,INITIAL,V0,Internal,,7-8,esplanade Compans Caffarelli,31000,Toulouse,,France,,43.61073,1.43519,SALE,33 330 000,2022-09-01,2022,0,MULTI_TENANT,TRANSACTION,,,
id_6,"68 chemin du Moulin Carron, 69570 Dardilly",0,12,23,34,42,52,62,71,812,821,831,91,102,112,122,131,141,"3,831082279","3,989665507","3,920156417","3,465022283","4,932727824","5,229983607","3,985131824","6,717677172","7,116813818","5,178407818","3,99048","4,154928609",Lyon office market,8100,OFFICES,STANDARD,O2019,ACTUAL,INITIAL,V0,Internal,,68,chemin du Moulin Carron,69570,Dardilly,,France,,45.80157,4.76911,SALE,35 000 000,2022-09-01,2022,0,MULTI_TENANT,TRANSACTION,,,
id_7,"53 rue Jean Zay, 69800 Saint-Priest",0,12,,34,41,52,62,72,812,821,831,93,102,112,121,131,141,"3,63868969","3,988313301","3,369189206","3,361641325","4,907040524","5,308814514","3,058226032","6,676843399","7,11664409","5,168857855","3,99048","4,162729914",Lyon office market,2595,OFFICES,STANDARD,O2019,ACTUAL,INITIAL,V0,Internal,,53,rue Jean Zay,69800,Saint-Priest,,France,,45.71011,4.90583,SALE,6 700 000,2022-03-01,2022,0,MULTI_TENANT,TRANSACTION,,,
id_8,"22 rue Marius Grosso, 69120 Vaulx-en-Velin",0,12,,34,43,52,61,72,812,821,831,91,102,112,121,131,141,"3,474708404","3,885194872","3,183189503","3,412747677","4,911650793","5,247427473","3,084509301","6,73863479","7,088037264","5,1595738","3,99048","4,155428084",Lyon office market,10871,OFFICES,STANDARD,O2019,ACTUAL,INITIAL,V0,Internal,,22,rue Marius Grosso,69120,Vaulx-en-Velin,,France,,45.76355,4.93446,SALE,20 000 000,2022-03-01,2022,0,MULTI_TENANT,TRANSACTION,,,
id_9,"49 Rue du Dauphiné, 69800 Saint-Priest",0,12,21,35,41,52,61,72,811,821,831,93,102,113,,131,141,"3,488248791","4,007324617","3,021115418","3,34753622","4,914883647","5,38201678","2,136025672","6,623108468","7,142325985","5,236060966","3,99048","4,15241932",Lyon office market,2500,OFFICES,STANDARD,O2019,ACTUAL,INITIAL,V0,Internal,,49,Rue du Dauphiné,69800,Saint-Priest,,France,,45.7122,4.91984,SALE,8 400 000,2022-03-01,2022,0,SINGLE_TENANT,TRANSACTION,,,
id_10,"24 avenue Joannès Masset, 69009 Lyon",0,12,21,32,41,52,62,72,812,821,831,92,102,112,122,132,141,"4,301432758","4,462174038","3,695198161","3,843985194","4,58964564","5,093231337","3,933546541","6,618306667","7,185148217","5,309105205","3,99048","4,378811106",Lyon office market,3111,OFFICES,STANDARD,O2019,ACTUAL,INITIAL,V0,Internal,,24,avenue Joannès Masset,69009,Lyon,,France,,45.76971,4.80083,SALE,13 750 000,2022-03-01,2022,0,MULTI_TENANT,TRANSACTION,,,
id_11,"37-39 rue Georges Courteline, 69100 Villeurbanne",0,12,23,,41,51,61,73,811,821,831,92,102,112,,132,141,"4,293857296","4,820298441","3,880140245","4,097210565","4,602974758","4,93950742","3,922034451","6,611542328","7,206377332","5,361833164","3,99048","4,420329023",Lyon office market,3970,OFFICES,STANDARD,O2019,ACTUAL,INITIAL,V0,Internal,,37-39,rue Georges Courteline,69100,Villeurbanne,,France,,45.779,4.8785,SALE,15 000 000,2021-12-01,2021,0,SINGLE_TENANT,TRANSACTION,,,
id_12,"79 cours Vitton, 69006 Lyon",0,12,,34,42,52,62,71,811,821,831,91,102,112,123,131,141,"5,123902704","5,393479394","3,711755037","4,460902209","4,581002038","4,226815801","2,931198113","6,675941453","7,224825994","5,459356032","3,99048","4,824394412",Lyon office market,5300,OFFICES,STANDARD,O2019,ACTUAL,INITIAL,V0,Internal,,79,cours Vitton,69006,Lyon,,France,,45.77028,4.85973,SALE,52 000 000,2021-06-01,2021,0,MULTI_TENANT,TRANSACTION,,,
id_13,"78 rue Gustave Delory, 59810 Lesquin",0,12,,,41,52,,72,811,821,831,92,102,113,121,131,141,"3,627500687","3,775439072","2,890455022","3,328497298","4,763193068","5,732177541","2,115167056","6,53287823","7,141044955","5,128350756","3,99048","4,331817242",Lille office market,3630,OFFICES,STANDARD,O2019,ACTUAL,INITIAL,V0,Internal,,78,rue Gustave Delory,59810,Lesquin,,France,,50.58858,3.0961,SALE,4 400 000,2021-01-01,2021,0,MULTI_TENANT,TRANSACTION,,,
id_14,"10 rue Héloïse, 59491 Villeneuve-d'Ascq",0,12,23,34,41,52,61,,811,821,831,93,102,112,121,131,141,"3,702514786","3,866566456","2,381061169","3,408290607","4,762767165","5,706548297","1,198432423","6,506559096","7,141958175","5,157795188","3,99048","4,348485246",Lille office market,1691,OFFICES,STANDARD,O2019,ACTUAL,INITIAL,V0,Internal,,10,rue Héloïse,59491,Villeneuve-d'Ascq,,France,,50.67071,3.1383,SALE,3 600 000,2021-03-01,2021,0,MULTI_TENANT,TRANSACTION,,,
id_15,"100 boulevard Carnot, 59000 Lille",0,13,23,34,42,52,63,72,811,821,831,91,102,111,123,132,141,"5,111838393","4,568697327","4,063075338","4,05272378","4,136611743","3,098749979","3,01836404","6,172852521","7,392446569","6,141276861","3,99048","3,903857466",Lille office market,8882,OFFICES,TOUR_IGH,O2019,ACTUAL,INITIAL,V0,Internal,,100,boulevard Carnot,59000,Lille,,France,,50.64163,3.07134,SALE,42 000 000,2021-03-01,2021,0,MULTI_TENANT,TRANSACTION,,,
id_16,"46-48 rue des Canonniers, 59000 Lille",0,12,,33,41,52,62,71,811,821,831,91,102,111,122,131,141,"4,729105826","4,768228053","4,518558936","4,009169562","4,545202529","4,877071891","4,777134796","6,642626486","7,202849846","5,291402887","3,99048","4,633757674",Lille office market,4700,OFFICES,STANDARD,O2019,ACTUAL,INITIAL,V0,Internal,,46-48,rue des Canonniers,59000,Lille,,France,,50.64082,3.06884,SALE,20 000 000,2021-10-01,2021,0,MULTI_TENANT,TRANSACTION,,,
id_17,"34 boulevard Jean-Baptiste Lebas, 59000 Lille",0,12,,34,42,51,61,72,813,822,832,91,102,111,123,131,141,"5,349790402","4,667173112","4,081822678","4,045179949","4,122554079","3,087448587","2,991370682","6,178003621","7,393185","6,133814183","3,99048","3,9219323",Lille office market,8000,OFFICES,STANDARD,O2019,ACTUAL,INITIAL,V0,Internal,,34,boulevard Jean-Baptiste Lebas,59000,Lille,,France,,50.62655,3.06826,SALE,36 000 000,2021-10-01,2021,0,MULTI_TENANT,TRANSACTION,,,
id_18,"45 rue Charles Marionneau, 33000 Bordeaux",0,12,21,35,41,52,,,811,821,831,92,102,111,,131,141,"5,251779684","5,116008656","3,471276185","4,549179142","4,297493866","4,892866367","2,95951832","6,505629641","7,296495558","5,643608942","3,99048","4,620262909",Bordeaux office market,2762,OFFICES,STANDARD,O2019,ACTUAL,INITIAL,V0,Internal,,45,rue Charles Marionneau,33000,Bordeaux,,France,,44.84037,-0.58638,SALE,12 500 000,2021-03-01,2021,0,MULTI_TENANT,TRANSACTION,,,
id_19,"6 avenue Charles Lindbergh, 33700 Mérignac",0,12,,34,41,52,61,72,811,821,831,92,102,112,121,131,141,"3,536525826","4,135055021","4,022550074","3,501893935","4,905067651","5,231963073","3,966405129","6,682434361","7,164567382","5,235139086","3,99048","4,188820847",Bordeaux office market,2800,OFFICES,STANDARD,O2019,ACTUAL,INITIAL,V0,Internal,,6,avenue Charles Lindbergh,33700,Mérignac,,France,,44.83668,-0.6923,SALE,8 040 000,2021-03-01,2021,0,SINGLE_TENANT,TRANSACTION,,,
id_20,"5 rue de Condé, 33000 Bordeaux",0,11,,31,41,51,62,71,811,821,831,93,102,111,122,131,141,"5,952137834","5,312473262","4,111086914","4,591029102","4,217674568","4,441394771","3,792932953","6,578579606","7,272236968","5,532590711","3,99048","5,024759823",Bordeaux office market,1845,OFFICES,HAUSSMANNIEN,O2019,ACTUAL,INITIAL,V0,Internal,,5,rue de Condé,33000,Bordeaux,,France,,44.84341,-0.57329,SALE,7 873 441,2021-06-01,2021,0,MULTI_TENANT,TRANSACTION,,,
id_21,"15 boulevard de la Prairie au Duc, 44000 Nantes",0,13,,34,41,51,63,72,811,821,831,91,102,111,,131,141,"4,451274969","4,490576165","2,823463649","3,836164701","4,623495525","5,185063802","2,083355305","6,582671632","7,178897597","5,373594426","3,99048","4,355436787",Nantes office market,3980,OFFICES,TOUR_IGH,O2019,ACTUAL,INITIAL,V0,Internal,,15,boulevard de la Prairie au Duc,44000,Nantes,,France,,47.20492,-1.55744,SALE,17 300 000,2021-11-01,2021,0,MULTI_TENANT,TRANSACTION,,,
id_22,"4 rue du Groupe d'Or, 31700 Blagnac",0,12,,34,43,52,62,71,811,821,831,91,102,112,122,132,141,"3,959670284","4,186810212","2,542298982","3,65725373","4,855833028","5,316026519","1,216642262","6,587924409","7,172892486","5,324768171","3,99048","4,289709294",Toulouse office market,15205,OFFICES,STANDARD,O2019,ACTUAL,INITIAL,V0,Internal,,4,rue du Groupe d'Or,31700,Blagnac,,France,,43.6303835,1.3812804,SALE,46 200 000,2020-01-01,2020,0,MULTI_TENANT,TRANSACTION,,,
id_23,"3547 route La Lauragaise, 31670 Labège",0,12,,33,41,51,61,72,812,821,831,93,102,112,,132,141,"4,380730635","4,241885206","2,435471056","3,731599009","4,870260056","5,134218604","1,230152788","6,634707691","7,163143429","5,347694773","3,99048","4,280289923",Toulouse office market,42,OFFICES,STANDARD,O2019,ACTUAL,INITIAL,V0,Internal,,3547,route La Lauragaise,31670,Labège,,France,,43.55074,1.51081,SALE,54 600,2020-01-01,2020,0,SINGLE_TENANT,TRANSACTION,,,
id_24,"20 avenue Didier Daurat, 31000 Toulouse",0,12,,34,41,52,62,72,811,821,831,93,102,113,121,131,141,"3,977173102","4,537610181","2,479414511","3,944028445","4,64789913","5,0841526","1,203275656","6,553612256","7,218825617","5,515169824","3,99048","4,321912027",Toulouse office market,177,OFFICES,STANDARD,O2019,ACTUAL,INITIAL,V0,Internal,,20,avenue Didier Daurat,31000,Toulouse,,France,,43.56796,1.49293,SALE,300 900,2020-02-01,2020,0,MULTI_TENANT,TRANSACTION,,,
id_25,"13 rue Paulin Talabo, 31000 Toulouse",0,12,23,34,41,51,61,72,811,821,831,92,102,113,121,131,141,"4,59629449","4,64824163","2,51302188","3,960936122","4,662553371","4,968590749","1,197205235","6,554686064","7,221022609","5,526664127","3,99048","4,317861371",Toulouse office market,2518,OFFICES,STANDARD,O2019,ACTUAL,INITIAL,V0,Internal,,13,rue Paulin Talabo,31000,Toulouse,,France,,43.56454,1.38813,SALE,2 400 000,2020-02-01,2020,0,MULTI_TENANT,TRANSACTION,,,
id_26,"3 avenue Hubert Curien, 31000 Toulouse",0,12,,34,43,52,62,72,811,821,831,91,102,113,,132,141,"4,560543461","4,412130173","2,127682865","3,866266089","4,64138771","4,981422353","1,222770324","6,60657462","7,169431587","5,435504283","3,99048","4,313774759",Toulouse office market,43727,OFFICES,STANDARD,O2019,ACTUAL,INITIAL,V0,Internal,,3,avenue Hubert Curien,31000,Toulouse,,France,,43.55801,1.4268,SALE,71 530 000,2020-10-01,2020,0,MULTI_TENANT,TRANSACTION,,,
id_27,"4 rue Marcel Paul, 44000 Nantes",0,12,,34,41,52,62,,813,821,831,91,102,111,,131,141,"4,746241919","4,486486827","3,33029965","3,760555001","4,628054389","5,128900781","3,001883812","6,588046796","7,182559416","5,33780139","3,99048","4,340124378",Nantes office market,3200,OFFICES,STANDARD,O2019,ACTUAL,INITIAL,V0,Internal,,4,rue Marcel Paul,44000,Nantes,,France,,47.21435,-1.53729,SALE,5 000 000,2020-10-01,2020,0,MULTI_TENANT,TRANSACTION,,,
id_28,"137 cours de l'Yser, 33800 Bordeaux",0,11,,31,41,51,61,72,811,821,831,93,102,111,122,131,141,"5,269868861","4,767861767","3,340709424","4,060549742","4,636882756","4,851260594","3,010427954","6,617254257","7,208306039","5,429982047","3,99048","4,391049657",Bordeaux office market,161,OFFICES,HAUSSMANNIEN,O2019,ACTUAL,INITIAL,V0,Internal,,137,cours de l'Yser,33800,Bordeaux,,France,,44.82467,-0.57024,SALE,499 905,2020-01-01,2020,0,MULTI_TENANT,TRANSACTION,,,
id_29,"6 rue Pierre et Marie Curie, 33520 Bruges",0,12,,34,42,52,62,72,811,821,831,91,102,112,122,132,141,"3,717785704","4,040660842","2,395712385","3,419564224","4,901076126","5,352475366","1,225678927","6,622078467","7,122008929","5,232151619","3,99048","4,192798394",Bordeaux office market,5840,OFFICES,STANDARD,O2019,ACTUAL,INITIAL,V0,Internal,,6,rue Pierre et Marie Curie,33520,Bruges,,France,,44.8726,-0.58402,SALE,15 000 000,2020-02-01,2020,0,MULTI_TENANT,TRANSACTION,,,
id_30,"485 avenue de Verdun, 33700 Mérignac",0,12,,33,41,51,62,72,811,821,831,93,102,112,,131,141,"4,390622971","4,031258445","3,342846297","3,378800031","4,899318104","5,294952797","3,042041533","6,664791329","7,114668552","5,150665201","3,99048","4,197019755",Bordeaux office market,394,OFFICES,STANDARD,O2019,ACTUAL,INITIAL,V0,Internal,,485,avenue de Verdun,33700,Mérignac,,France,,44.8414,-0.64455,SALE,915 000,2020-01-01,2020,0,MULTI_TENANT,TRANSACTION,,,
id_31,"31 allée Lavoisier, 59491 Villeneuve-d'Ascq",0,12,,33,41,51,61,72,811,821,831,93,102,112,,131,141,"3,571350961","3,83118679","3,373366547","3,366821489","4,758308447","5,691002516","3,02717879","6,558503127","7,141236443","5,095786688","3,99048","4,346071927",Lille office market,615,OFFICES,STANDARD,O2019,ACTUAL,INITIAL,V0,Internal,,31,allée Lavoisier,59491,Villeneuve-d'Ascq,,France,,50.64341,3.14185,SALE,650 000,2020-02-01,2020,0,MULTI_TENANT,TRANSACTION,,,
id_32,"5 place Jules Ferry, 69006 Lyon",0,11,,31,43,53,62,73,811,821,831,91,102,111,,131,141,"5,105148869","5,413676929","3,243995955","4,515422971","4,605433702","4,182464054","2,03427796","6,650684144","7,236698352","5,526785034","3,99048","4,807445053",Lyon office market,21180,OFFICES,HAUSSMANNIEN,O2019,ACTUAL,INITIAL,V0,Internal,,5,place Jules Ferry,69006,Lyon,,France,,45.76667,4.85887,SALE,120 000 000,2020-01-01,2020,0,MULTI_TENANT,TRANSACTION,,,
id_33,"141 cours Gambetta, 69003 Lyon",0,12,21,33,43,52,62,72,814,821,832,91,102,111,123,131,141,"5,75640091","5,505020299","4,486313432","4,775359228","4,233888291","2,260267464","3,017953222","6,225908315","7,475628816","6,459398844","3,99048","3,919211041",Lyon office market,20200,OFFICES,STANDARD,O2019,ACTUAL,INITIAL,V0,Internal,,141,cours Gambetta,69003,Lyon,,France,,45.7499,4.85911,SALE,120 000 000,2020-10-01,2020,0,MULTI_TENANT,TRANSACTION,,,
id_34,"34 rue du 35ème Régiment d'Aviation, 69500 Bron",0,12,,,41,53,61,71,811,821,831,93,102,112,,132,141,"4,13781485","4,178173713","3,189868043","3,515255881","4,933157619","5,062620093","3,065918368","6,716185799","7,125019447","5,207654455","3,99048","4,171215887",Lyon office market,78,OFFICES,STANDARD,O2019,ACTUAL,INITIAL,V0,Internal,,34,rue du 35ème Régiment d'Aviation,69500,Bron,,France,,45.73538,4.93178,SALE,120 978,2020-07-01,2020,0,MULTI_TENANT,TRANSACTION,,,
id_35,"353 avenue Tony Garnier, 69007 Lyon",0,12,,31,42,53,62,72,813,821,831,91,102,112,,131,141,"4,220478852","4,775529233","2,928165294","4,187166244","4,645398975","4,887702463","2,121935499","6,591613579","7,223228081","5,507576915","3,99048","4,379374961",Lyon office market,7200,OFFICES,STANDARD,O2019,ACTUAL,INITIAL,V0,Internal,,353,avenue Tony Garnier,69007,Lyon,,France,,45.72677,4.82496,SALE,38 000 000,2020-02-01,2020,0,MULTI_TENANT,TRANSACTION,,,
id_36,"6 rue Abraham Bloch, 69007 Lyon",0,12,21,35,41,52,62,,811,821,831,92,102,112,122,131,141,"3,894341053","5,120446967","2,700652968","4,428018623","4,685975573","4,699899977","1,200645766","6,600160224","7,274134651","5,689512882","3,99048","4,377224834",Lyon office market,2800,OFFICES,STANDARD,O2019,ACTUAL,INITIAL,V0,Internal,,6,rue Abraham Bloch,69007,Lyon,,France,,45.73951,4.84165,SALE,13 500 000,2020-07-01,2020,0,MULTI_TENANT,TRANSACTION,,,
id_37,"52 quai Paul Sédallian, 69009 Lyon",0,12,23,33,43,53,61,71,811,821,831,91,102,112,122,131,141,"4,104335243","4,441321219","3,321522342","3,839435293","4,584796552","5,202902887","3,014980938","6,568848787","7,18692978","5,333017958","3,99048","4,382237118",Lyon office market,32698,OFFICES,STANDARD,O2019,ACTUAL,INITIAL,V0,Internal,,52,quai Paul Sédallian,69009,Lyon,,France,,45.78772,4.81456,SALE,20 700 000,2020-01-01,2020,0,MULTI_TENANT,TRANSACTION,,,
id_38,"4 chemin du Ruisseau, 69130 Écully",0,12,23,34,41,52,62,71,811,821,831,92,102,112,,131,141,"4,659827744","4,04596098","3,163287609","3,411904121","4,936510578","5,139955474","3,067207783","6,69526932","7,099510174","5,14413908","3,99048","4,163275306",Lyon office market,4318,OFFICES,STANDARD,O2019,ACTUAL,INITIAL,V0,Internal,,4,chemin du Ruisseau,69130,Écully,,France,,45.77072,4.78518,SALE,8 600 000,2020-01-01,2020,"0,08",MULTI_TENANT,TRANSACTION,,,
id_39,"208-210 avenue Jean Jaurès, 69007 Lyon",0,12,,34,42,52,62,,811,821,831,91,102,112,,,141,"3,604579958","4,991647788","3,655652503","4,298759025","4,644136313","4,834267102","3,012353714","6,634390174","7,258400225","5,566693461","3,99048","4,394668028",Lyon office market,7130,OFFICES,STANDARD,O2019,ACTUAL,INITIAL,V0,Internal,,208-210,avenue Jean Jaurès,69007,Lyon,,France,,45.73547,4.83589,SALE,37 500 000,2020-10-01,2020,0,MULTI_TENANT,TRANSACTION,,,
id_40,"375 rue Juliette Récamier, 69970 Chaponnay",0,12,,33,42,52,61,,811,821,831,91,102,113,122,131,141,"2,992428097","3,670913393","3,773060469","3,165452127","4,85376001","5,574407578","3,970224146","6,655821983","7,116372235","5,084389479","3,99048","4,160057407",Lyon office market,6300,OFFICES,STANDARD,O2019,ACTUAL,INITIAL,V0,Internal,,375,rue Juliette Récamier,69970,Chaponnay,,France,,45.64759,4.92357,SALE,17 000 000,2020-10-01,2020,0,SINGLE_TENANT,TRANSACTION,,,
id_41,"13 rue Crépet, 69007 Lyon",0,12,,34,42,52,62,73,812,821,831,91,102,112,123,131,141,"4,01376023","5,027251295","2,631652176","4,36144252","4,675257495","4,7689529","1,199219504","6,58909338","7,260749404","5,646467275","3,99048","4,379426706",Lyon office market,8523,OFFICES,STANDARD,O2019,ACTUAL,INITIAL,V0,Internal,,13,rue Crépet,69007,Lyon,,France,,45.73979,4.83353,SALE,42 000 000,2020-11-01,2020,0,MULTI_TENANT,TRANSACTION,,,
id_42,"17-19 avenue Albert Einstein, 69100 Villeurbanne",0,12,21,35,43,52,62,71,813,821,831,91,102,112,,132,141,"4,325447232","4,725289093","3,256417091","3,947870776","4,587502344","4,974631702","3,012504571","6,581714433","7,199420195","5,353441919","3,99048","4,402732267",Lyon office market,14802,OFFICES,STANDARD,O2019,ACTUAL,INITIAL,V0,Internal,,17-19,avenue Albert Einstein,69100,Villeurbanne,,France,,45.7834,4.88287,SALE,65 000 000,2020-11-01,2020,0,MULTI_TENANT,TRANSACTION,,,
id_43,"37 rue Saint-Romain, 69008 Lyon",0,12,,33,41,52,62,72,811,821,831,92,102,111,,131,141,"4,461527018","5,11502274","3,519256172","4,378004083","4,661282659","4,648267828","3,024357561","6,639275884","7,237976057","5,530641377","3,99048","4,406788325",Lyon office market,3830,OFFICES,STANDARD,O2019,ACTUAL,INITIAL,V0,Internal,,37,rue Saint-Romain,69008,Lyon,,France,,45.74095,4.86536,SALE,8 900 000,2020-11-01,2020,0,MULTI_TENANT,TRANSACTION,,,
id_44,"69 rue de Trion, 69005 Lyon",0,12,,34,41,51,62,,811,821,831,93,102,113,,131,141,"6,237002686","5,046956298","3,355387314","4,137063287","4,681812062","4,530078505","3,013000127","6,637861559","7,214907896","5,470233926","3,99048","4,366577942",Lyon office market,136,OFFICES,STANDARD,O2019,ACTUAL,INITIAL,V0,Internal,,69,rue de Trion,69005,Lyon,,France,,45.75741,4.81478,SALE,510 000,2020-12-01,2020,0,MULTI_TENANT,TRANSACTION,,,
id_45,"7 chemin du Dodin, 69570 Dardilly",0,12,,33,41,51,61,72,811,821,831,93,102,112,121,131,141,"4,00570741","3,974183821","2,763206432","3,397255746","4,924852046","5,217689119","2,156628301","6,679904291","7,116330746","5,223827933","3,99048","4,144883723",Lyon office market,104,OFFICES,STANDARD,O2019,ACTUAL,INITIAL,V0,Internal,,7,chemin du Dodin,69570,Dardilly,,France,,45.81817,4.7613,SALE,178 152,2020-07-01,2020,0,MULTI_TENANT,TRANSACTION,,,
id_46,"52 quai Paul Sédaillan, 69009 Lyon",0,12,,33,43,53,61,71,811,821,831,91,102,112,,,141,"4,104335243","4,441321219","3,321522342","3,839435293","4,584796552","5,202902887","3,014980938","6,568848787","7,18692978","5,333017958","3,99048","4,382237118",Lyon office market,14000,OFFICES,STANDARD,O2019,ACTUAL,INITIAL,V0,Internal,,52,quai Paul Sédaillan,69009,Lyon,,France,,45.78772,4.81456,SALE,63 500 000,2020-01-01,2020,0,SINGLE_TENANT,TRANSACTION,,,
id_47,"39-41 rue Grenette, 69002 Lyon",0,11,,31,42,51,62,72,811,821,831,91,102,111,122,131,141,"6,872078906","6,70590699","4,532828596","4,520108789","4,233411284","3,705313399","2,461912284","6,779053388","7,210666124","5,238157719","3,99048","5,862587522",Lyon office market,5730,OFFICES,HAUSSMANNIEN,O2019,ACTUAL,INITIAL,V0,Internal,,39-41,rue Grenette,69002,Lyon,,France,,45.76346,4.83505,SALE,35 000 000,2020-02-01,2020,0,SINGLE_TENANT,TRANSACTION,,,
id_48,"27 boulevard Vauban, 59000 Lille",0,12,21,33,42,52,62,73,811,821,831,91,102,111,,131,141,"5,471476743","4,626506917","3,552020866","4,068097828","4,141186124","3,062536682","2,097636818","6,152742591","7,391084598","6,170685852","3,99048","3,90549265",Lille office market,7800,OFFICES,STANDARD,O2019,ACTUAL,INITIAL,V0,Internal,,27,boulevard Vauban,59000,Lille,,France,,50.63565,3.05016,SALE,18 000 000,2019-04-01,2019,0,SINGLE_TENANT,TRANSACTION,,,
id_49,"23 rue Crépet, 69000 Lyon",0,12,21,34,43,52,62,72,811,821,831,91,102,112,121,131,141,"3,783796368","5,084750449","2,688449173","4,378598983","4,66966197","4,767437449","1,190253256","6,595368394","7,27100494","5,669223443","3,99048","4,384018156",Lyon office market,11000,OFFICES,STANDARD,O2019,ACTUAL,INITIAL,V0,Internal,,23,rue Crépet,69000,Lyon,,France,,45.73903,4.83574,SALE,40 000 000,2019-10-01,2019,0,MULTI_TENANT,TRANSACTION,,,
id_50,"1 rue Alexander Fleming, 69007 Lyon",0,12,,34,43,52,62,72,812,821,831,91,102,112,122,131,141,"3,974981317","4,752995573","3,41428466","4,104741889","4,626152727","4,897940268","3,032360048","6,613223744","7,223915462","5,464428368","3,99048","4,377844819",Lyon office market,28000,OFFICES,STANDARD,O2019,ACTUAL,INITIAL,V0,Internal,,1,rue Alexander Fleming,69007,Lyon,,France,,45.72663,4.82385,SALE,120 000 000,2019-10-01,2019,0,MULTI_TENANT,TRANSACTION,,,
id_51,"7 bis rue des Aulnes, 69410 Champagne-au-Mont-d'Or",0,12,23,33,41,51,,72,811,821,831,93,102,112,,131,141,"4,010480876","4,056302433","2,461368202","3,459804918","4,933604479","5,291321812","1,228263251","6,63269486","7,121928731","5,26306664","3,99048","4,158529377",Lyon office market,97,OFFICES,STANDARD,O2019,ACTUAL,INITIAL,V0,Internal,,7,bis rue des Aulnes,69410,Champagne-au-Mont-d'Or,,France,,45.80386,4.7781,SALE,169 459,2019-10-01,2019,0,MULTI_TENANT,TRANSACTION,,,
id_52,"42 chemin du Moulin Carron, 69130 Écully",0,12,,,41,52,61,72,811,821,831,93,102,112,,131,141,"3,574662115","3,999974086","3,404145768","3,449393142","4,921453342","5,295710225","3,064280809","6,684638105","7,12126617","5,197489714","3,99048","4,163922472",Lyon office market,104,OFFICES,STANDARD,O2019,ACTUAL,INITIAL,V0,Internal,,42,chemin du Moulin Carron,69130,Écully,,France,,45.79324,4.7759,SALE,158 095,2019-08-01,2019,0,MULTI_TENANT,TRANSACTION,,,
id_53,"37 rue Saint-Simon, 69009 Lyon",0,12,,34,41,52,61,72,811,821,831,93,102,112,,131,141,"4,498505594","4,453532944","3,243761008","3,952764717","4,616095884","5,086272936","3,033534072","6,59407291","7,182805685","5,359891452","3,99048","4,374497861",Lyon office market,248,OFFICES,STANDARD,O2019,ACTUAL,INITIAL,V0,Internal,,37,rue Saint-Simon,69009,Lyon,,France,,45.77689,4.79707,SALE,689 936,2019-01-01,2019,0,MULTI_TENANT,TRANSACTION,,,
id_54,"3 rue Maryse Bastié, 69500 Bron",0,12,,33,41,52,61,,811,821,831,93,102,112,121,131,141,"3,444841279","4,088881933","3,350027178","3,440889928","4,911199974","5,237167993","3,060344912","6,687912952","7,129730001","5,199579994","3,99048","4,170683182",Lyon office market,2450,OFFICES,STANDARD,O2019,ACTUAL,INITIAL,V0,Internal,,3,rue Maryse Bastié,69500,Bron,,France,,45.72693,4.92113,SALE,2 427 000,2019-02-01,2019,0,MULTI_TENANT,TRANSACTION,,,
id_55,"63 avenue Tony Garnier, 69007 Lyon",0,12,,34,43,52,62,72,814,821,831,91,102,112,121,131,141,"4,024566876","4,890072579","3,612826449","4,254610243","4,655864034","4,85345319","3,02829069","6,603531282","7,248583597","5,533590231","3,99048","4,381999677",Lyon office market,11400,OFFICES,STANDARD,O2019,ACTUAL,INITIAL,V0,Internal,,63,avenue Tony Garnier,69007,Lyon,,France,,45.72662,4.83379,SALE,50 000 000,2019-07-01,2019,0,MULTI_TENANT,TRANSACTION,,,
id_56,"45 allée du Mens, 69100 Villeurbanne",0,12,,34,41,51,61,72,811,821,831,93,102,113,,131,141,"3,619470846","4,157480649","3,278283174","3,408751226","4,887117485","5,25069769","3,049053587","6,663411111","7,113141491","5,1265068","3,99048","4,201415546",Lyon office market,628,OFFICES,STANDARD,O2019,ACTUAL,INITIAL,V0,Internal,,45,allée du Mens,69100,Villeurbanne,,France,,45.78073,4.90677,SALE,485 000,2019-09-01,2019,0,MULTI_TENANT,TRANSACTION,,,
id_57,"73 rue Carle Vernet, 33000 Bordeaux",0,12,21,35,41,52,62,,814,821,831,92,102,111,,131,141,"4,873898501","4,618986345","3,363323261","3,921452757","4,616843458","4,969475769","3,018928612","6,589710091","7,205374838","5,400139106","3,99048","4,374789258",Bordeaux office market,3600,OFFICES,STANDARD,O2019,ACTUAL,INITIAL,V0,Internal,,73,rue Carle Vernet,33000,Bordeaux,,France,,44.81991,-0.55066,SALE,13 400 000,2019-03-01,2019,0,MULTI_TENANT,TRANSACTION,,,
id_58,"61 rue Jean Briaud, 33700 Mérignac",0,12,23,33,41,52,61,71,811,821,831,92,102,112,121,131,141,"3,18797643","4,042814755","3,488302123","3,471661277","4,895905872","5,33155204","3,056953781","6,662557123","7,154901814","5,243770629","3,99048","4,188198815",Bordeaux office market,3025,OFFICES,STANDARD,O2019,ACTUAL,INITIAL,V0,Internal,,61,rue Jean Briaud,33700,Mérignac,,France,,44.82187,-0.67239,SALE,5 065 200,2018-08-01,2018,0,MULTI_TENANT,TRANSACTION,,,
id_59,"2 rue Joseph Hubert, 31130 Balma",0,12,23,33,41,52,62,72,811,821,831,91,102,112,,131,141,"4,291348096","4,045845269","2,37056542","3,512499079","4,84192664","5,388460853","1,214305073","6,582156893","7,146634593","5,245836072","3,99048","4,287815754",Toulouse office market,2800,OFFICES,STANDARD,O2019,ACTUAL,INITIAL,V0,Internal,,2,rue Joseph Hubert,31130,Balma,,France,,43.62362,1.49085,SALE,7 400 000,2019-03-01,2019,0,MULTI_TENANT,TRANSACTION,,,
id_60,"18 avenue de l'Europe, 31520 Ramonville-Saint-Agne",0,12,23,33,41,51,61,72,811,821,831,93,102,113,121,132,141,"3,599498233","4,143839444","2,556831915","3,605042469","4,828467952","5,429537631","1,209018441","6,559433113","7,17338124","5,29333924","3,99048","4,303743838",Toulouse office market,127,OFFICES,STANDARD,O2019,ACTUAL,INITIAL,V0,Internal,,18,avenue de l'Europe,31520,Ramonville-Saint-Agne,,France,,43.55289,1.49041,SALE,186 690,2019-04-01,2019,0,SINGLE_TENANT,TRANSACTION,,,
id_61,"150 rue Nicolas-Louis Vauquelin, 31100 Toulouse",0,12,23,33,41,52,62,72,811,821,831,93,102,113,121,131,141,"3,860767223","4,581621716","2,539974218","4,034355117","4,658525857","5,074295406","1,203221922","6,569534642","7,217625071","5,535769642","3,99048","4,33010624",Toulouse office market,127,OFFICES,STANDARD,O2019,ACTUAL,INITIAL,V0,Internal,,150,rue Nicolas-Louis Vauquelin,31100,Toulouse,,France,,43.58356,1.40318,SALE,80 107,2019-01-01,2019,0,MULTI_TENANT,TRANSACTION,,,
id_62,"17 mail Haroun Tazieff, 44300 Nantes",0,12,,34,41,52,62,,811,821,831,93,102,113,121,131,141,"4,214042762","4,386251884","3,776779154","3,809905832","4,623511479","5,119351337","3,942400857","6,624724367","7,181781401","5,326157579","3,99048","4,333545216",Nantes office market,126,OFFICES,STANDARD,O2019,ACTUAL,INITIAL,V0,Internal,,17,mail Haroun Tazieff,44300,Nantes,,France,,47.24196,-1.51601,SALE,212 000,2018-04-01,2018,0,MULTI_TENANT,TRANSACTION,,,
id_63,"Impasse Charles Trenet, 44800 Saint-Herblain",0,12,,34,41,52,62,72,811,821,831,91,102,112,121,131,141,"3,874022629","3,988552426","3,432320187","3,47373223","4,811735194","5,469521536","3,036423816","6,609881485","7,145902319","5,166604391","3,99048","4,306580207",Nantes office market,3166,OFFICES,STANDARD,O2019,ACTUAL,INITIAL,V0,Internal,,,Impasse Charles Trenet,44800,Saint-Herblain,,France,,47.22662,-1.62373,SALE,7 072 800,2018-06-01,2018,0,MULTI_TENANT,TRANSACTION,,,
id_64,"8 rue de la Garde, 44000 Nantes",0,12,,33,41,51,61,73,811,821,831,93,102,112,,131,141,"4,04768146","4,322945976","3,735295001","3,799641595","4,615766593","5,087071878","3,958303047","6,651922093","7,165083574","5,319021664","3,99048","4,323066412",Nantes office market,727,OFFICES,STANDARD,O2019,ACTUAL,INITIAL,V0,Internal,,8,rue de la Garde,44000,Nantes,,France,,47.25028,-1.50134,SALE,300 000,2018-02-01,2018,0,MULTI_TENANT,TRANSACTION,,,
id_65,"3 bis rue d'Athènes, 44000 Nantes",0,12,23,33,41,51,61,72,811,821,831,93,102,112,,131,141,"4,063317492","4,329913053","3,25597257","3,809464771","4,61878987","5,124534456","3,041106452","6,620132182","7,168422197","5,350523702","3,99048","4,324311936",Nantes office market,784,OFFICES,STANDARD,O2019,ACTUAL,INITIAL,V0,Internal,,3,bis rue d'Athènes,44000,Nantes,,France,,47.24933,-1.50344,SALE,200 000,2018-02-01,2018,0,MULTI_TENANT,TRANSACTION,,,
id_66,"16 place du Mont-de-Terre, 59800 Lille",0,12,23,32,41,51,61,72,811,821,831,93,102,113,,131,141,"4,906424479","4,48401105","2,758764563","3,797135471","4,581416305","5,144861068","2,096740405","6,53140936","7,187149596","5,344205906","3,99048","4,397358579",Lille office market,57,OFFICES,STANDARD,O2019,ACTUAL,INITIAL,V0,Internal,,16,place du Mont-de-Terre,59800,Lille,,France,,50.6229,3.09119,SALE,120 000,2018-02-01,2018,0,MULTI_TENANT,TRANSACTION,,,
id_67,"87 rue Nationale, 59000 Lille",0,12,23,33,41,51,62,,811,821,831,93,102,111,,131,141,"4,74625019","4,785671032","4,370690346","4,046049928","4,003343655","3,09318842","2,880989182","6,186689664","7,386513599","6,053276206","3,99048","4,273483987",Lille office market,827,OFFICES,STANDARD,O2019,ACTUAL,INITIAL,V0,Internal,,87,rue Nationale,59000,Lille,,France,,50.63516,3.0584,SALE,1 764 000,2018-04-01,2018,0,MULTI_TENANT,TRANSACTION,,,
id_68,"5-9 rue Abraham Bloch, 69007 Lyon",0,12,,34,41,52,62,72,813,821,831,93,102,112,,132,141,"3,574927143","5,075964109","4,68507039","4,411879057","4,671159243","4,66351215","4,858762628","6,702916767","7,272004292","5,567502354","3,99048","4,3859354",Lyon office market,1932,OFFICES,STANDARD,O2019,ACTUAL,INITIAL,V0,Internal,,5-9,rue Abraham Bloch,69007,Lyon,,France,,45.73963,4.84123,SALE,5 409 600,2018-10-01,2018,0,MULTI_TENANT,TRANSACTION,,,
id_69,"12 allée Irène Joliot-Curie, 69800 Saint-Priest",0,12,,33,41,51,61,73,811,821,831,93,102,113,,131,141,"3,243286985","3,988147371","3,871676269","3,405926444","4,912101344","5,280998492","3,97872145","6,70989031","7,136929672","5,188294264","3,99048","4,157154672",Lyon office market,760,OFFICES,STANDARD,O2019,ACTUAL,INITIAL,V0,Internal,,12,allée Irène Joliot-Curie,69800,Saint-Priest,,France,,45.71833,4.93453,SALE,1 334 600,2018-10-01,2018,0,MULTI_TENANT,TRANSACTION,,,
id_70,"9-11 avenue Didier Daurat, 31700 Blagnac",0,12,21,35,42,52,61,,812,821,831,91,102,112,121,131,141,"4,279884399","4,278359835","2,53264137","3,715142275","4,87347271","5,204604887","1,218682216","6,599807866","7,17927382","5,351336184","3,99048","4,286444531",Toulouse office market,6670,OFFICES,STANDARD,O2019,ACTUAL,INITIAL,V0,Internal,,9-11,avenue Didier Daurat ,31700,Blagnac,,France,,43.62882,1.38,SALE,20 000 000,2018-06-01,2018,0,MULTI_TENANT,TRANSACTION,,,
id_71,"7 rue Giotto, 31520 Ramonville-Saint-Agne",0,12,23,33,41,51,61,72,811,821,831,93,102,113,121,131,141,"4,16474299","4,163667792","2,462048231","3,60189272","4,834948204","5,327611113","1,212213455","6,585303037","7,15192499","5,268993464","3,99048","4,301065522",Toulouse office market,512,OFFICES,STANDARD,O2019,ACTUAL,INITIAL,V0,Internal,,7,rue Giotto,31520,Ramonville-Saint-Agne,,France,,43.55239,1.4842,SALE,563 000,2018-07-01,2018,0,MULTI_TENANT,TRANSACTION,,,
id_76,"13 Rue John Hadley, 59650 Villeneuve-d'Ascq",0,12,23,33,41,52,61,71,811,821,831,93,102,112,121,131,141,"3,855161969","3,85098926","2,364489708","3,360370183","4,762091742","5,691665852","1,197654295","6,50821839","7,139735641","5,151893215","3,99048","4,339989475",Lille office market,1650,OFFICES,STANDARD,O2019,ACTUAL,INITIAL,V0,Internal,,13,Rue John Hadley,59650,Villeneuve-d'Ascq,,France,,50.60965,3.15164,SALE,5 000 000,2021-02-05,2021,0,MULTI_TENANT,TRANSACTION,,,
id_77,"43 Rue Gustave Delory, 59800 Lille",0,12,21,35,43,54,62,,811,821,831,91,102,111,,131,141,"5,422317933","4,731335503","4,106622406","4,059659128","4,116406838","3,09635549","2,973563057","6,183002312","7,393685938","6,131573451","3,99048","3,936741194",Lille office market,28500,OFFICES,STANDARD,O2019,ACTUAL,INITIAL,V0,Internal,,43,Rue Gustave Delory,59800,Lille,,France,,50.63366,3.07166,SALE,"85729935,7",2021-07-06,2021,0,SINGLE_TENANT,TRANSACTION,,,
id_78,"48 Rue Des Canonniers, 59800 Lille",0,11,,31,41,52,62,72,811,821,831,91,102,111,,131,141,"4,729105826","4,768228053","4,518558936","4,009169562","4,545202529","4,877071891","4,777134796","6,642626486","7,202849846","5,291402887","3,99048","4,633757674",Lille office market,4700,OFFICES,HAUSSMANNIEN,O2019,ACTUAL,INITIAL,V0,Internal,,48,Rue Des Canonniers,59800,Lille,,France,,50.64087,3.06881,SALE,20 000 000,2021-10-06,2021,0,MULTI_TENANT,TRANSACTION,,,
id_79,"78 Les Quatre Cantons, 59260 Lezennes",0,12,,34,42,52,62,72,811,821,831,91,102,112,,132,141,"3,535001816","3,799260506","3,373509813","3,335380048","4,753120476","5,710176407","3,027541114","6,554304825","7,141564382","5,092475375","3,99048","4,341717797",Lille office market,9204,OFFICES,STANDARD,O2019,ACTUAL,INITIAL,V0,Internal,,78,Les Quatre Cantons,59260,Lezennes,,France,,50.6012576,3.1375896,SALE,30 660 000,2021-07-07,2021,0,SINGLE_TENANT,TRANSACTION,,,
id_80,"78 Rue de La Gare, 59170 Croix",0,11,,31,41,51,61,72,811,821,831,93,102,112,122,131,141,"3,784841103","3,88386343","3,348323928","3,427527588","4,759328979","5,648339639","3,025727097","6,557050926","7,140927903","5,096097311","3,99048","4,357649011",Lille office market,637,OFFICES,HAUSSMANNIEN,O2019,ACTUAL,INITIAL,V0,Internal,,78,Rue de La Gare,59170,Croix,,France,,50.67726,3.14122,SALE,2 000 000,2021-01-01,2021,0,SINGLE_TENANT,TRANSACTION,,,
id_81,"10 Rue Heloise, 59650 Villeneuve-d'Ascq",0,12,23,34,41,52,61,72,811,821,831,93,102,112,,131,141,"3,887568052","3,833723362","3,824196669","3,344254739","4,759701035","5,612986072","3,944453523","6,585115453","7,138804635","5,062648442","3,99048","4,340001062",Lille office market,1700,OFFICES,STANDARD,O2019,ACTUAL,INITIAL,V0,Internal,,10,Rue Heloise,59650,Villeneuve-d'Ascq,,France,,50.60362,3.15176,SALE,3 600 000,2021-03-12,2021,0,MULTI_TENANT,TRANSACTION,,,
id_82,"82 Rue Amedee Saint-Germain, 33800 Bordeaux",0,11,,31,43,51,61,72,811,821,831,91,102,111,,131,141,"3,961486862","4,515802621","3,937758501","3,976225115","4,602872761","5,0721487","3,944578927","6,628475152","7,198066777","5,3793658","3,99048","4,382993673",Bordeaux office market,27000,OFFICES,HAUSSMANNIEN,O2019,ACTUAL,INITIAL,V0,Internal,,82,Rue Amedee Saint-Germain,33800,Bordeaux,,France,,44.82099,-0.56095,SALE,100 000 000,2020-01-01,2020,0,SINGLE_TENANT,TRANSACTION,,,
id_83,"70-72 Quai de Paludate, 33800 Bordeaux",0,11,,31,42,51,61,72,811,821,831,91,102,111,,131,141,"3,653244487","4,508643953","3,4641079","3,920617173","4,586552516","5,19112373","3,013947429","6,581489176","7,21261268","5,405083985","3,99048","4,389909041",Bordeaux office market,7628,OFFICES,HAUSSMANNIEN,O2019,ACTUAL,INITIAL,V0,Internal,,70-72,Quai de Paludate,33800,Bordeaux,,France,,44.82723,-0.55103,SALE,22 000 000,2021-07-01,2021,0,MULTI_TENANT,TRANSACTION,,,
id_84,"341 Blvd Jean Jacques Bosc, 33800 Bordeaux",0,12,,34,42,52,61,72,811,821,831,91,102,111,,131,141,"5,397750071","4,60197074","2,858040473","3,936156719","4,639289877","4,950160161","2,106201986","6,571167925","7,201760829","5,438020958","3,99048","4,362198412",Bordeaux office market,6612,OFFICES,STANDARD,O2019,ACTUAL,INITIAL,V0,Internal,,341,Blvd Jean Jacques Bosc,33800,Bordeaux,,France,,44.81505,-0.55255,SALE,9 139 386,2021-04-01,2021,0,MULTI_TENANT,TRANSACTION,,,
id_85,"69 Cours Edouard Vaillant, 33300 Bordeaux",0,12,23,33,41,51,61,,811,821,831,93,102,111,,131,141,"4,155314597","4,567982201","3,443382093","3,98043764","4,5977406","5,15175259","3,005447207","6,585083056","7,204981105","5,395171643","3,99048","4,403556426",Bordeaux office market,1500,OFFICES,STANDARD,O2019,ACTUAL,INITIAL,V0,Internal,,69,Cours Edouard Vaillant,33300,Bordeaux,,France,,44.86132,-0.55876,SALE,5 800 000,2021-06-16,2021,0,MULTI_TENANT,TRANSACTION,,,
id_86,"45 Rue Charles Marionneau, 33000 Bordeaux",0,11,,32,41,52,61,,811,821,831,92,102,111,121,131,141,"5,251779684","5,116008656","3,471276185","4,549179142","4,297493866","4,892866367","2,95951832","6,505629641","7,296495558","5,643608942","3,99048","4,620262909",Bordeaux office market,2762,OFFICES,HAUSSMANNIEN,O2019,ACTUAL,INITIAL,V0,Internal,,45,Rue Charles Marionneau,33000,Bordeaux,,France,,44.84037,-0.58638,SALE,12 500 000,2021-03-23,2021,0,MULTI_TENANT,TRANSACTION,,,
id_87,"5-7 Rue du Moulin Bayard, 31000 Toulouse",0,12,23,34,41,51,62,73,811,821,831,92,102,111,122,131,141,"6,103757884","5,397426062","2,561552228","4,383329222","4,334436107","4,881153384","1,036026756","6,524043398","7,265288168","5,655928089","3,99048","4,565738379",Toulouse office market,2190,OFFICES,STANDARD,O2019,ACTUAL,INITIAL,V0,Internal,,5-7,Rue du Moulin Bayard,31000,Toulouse,,France,,43.60932,1.45289,SALE,7 000 000,2021-04-01,2021,0,MULTI_TENANT,TRANSACTION,,,
id_88,"17 Ave Jean Gonord, 31500 Toulouse",0,12,23,33,42,51,61,72,811,821,831,91,102,113,,131,141,"4,36033548","4,450777337","2,358784484","3,846713359","4,643903617","5,093502098","1,206570957","6,557176025","7,19284852","5,455148713","3,99048","4,316550691",Toulouse office market,7485,OFFICES,STANDARD,O2019,ACTUAL,INITIAL,V0,Internal,,17,Ave Jean Gonord,31500,Toulouse,,France,,43.59161,1.49014,SALE,"20468105,6",2021-04-01,2021,0,MULTI_TENANT,TRANSACTION,,,
id_89,"134 Ave du General Eisenhower, 31100 Toulouse",0,12,21,35,42,54,61,,811,821,831,91,102,113,,131,141,"4,318614132","4,561759342","2,407844425","3,956175481","4,654277616","4,985294125","1,210291334","6,57202588","7,210811702","5,514267887","3,99048","4,315659228",Toulouse office market,5137,OFFICES,STANDARD,O2019,ACTUAL,INITIAL,V0,Internal,,134,Ave du General Eisenhower,31100,Toulouse,,France,,43.56785,1.37667,SALE,"13558942,8",2021-04-01,2021,0,MULTI_TENANT,TRANSACTION,,,
id_90,"2 Impasse Serge Reggiani, 44800 Saint-Herblain",0,12,,34,41,52,61,72,811,821,831,91,102,112,122,131,141,"3,577641896","3,97034882","3,942433232","3,462320453","4,796812641","5,507453784","3,944467192","6,631713535","7,148669157","5,134714006","3,99048","4,315739658",Nantes office market,3000,OFFICES,STANDARD,O2019,ACTUAL,INITIAL,V0,Internal,,2,Impasse Serge Reggiani,44800,Saint-Herblain,,France,,47.23167,-1.62733,SALE,8 300 000,2021-06-01,2021,0,MULTI_TENANT,TRANSACTION,,,
id_91,"2 Ave du Saint-Laurent, 44800 Saint-Herblain",0,12,21,,41,53,62,,811,821,831,91,102,112,121,132,141,"4,047954628","4,072830873","2,427992087","3,46314511","4,797173898","5,520423019","1,179677293","6,562923659","7,149468758","5,216538008","3,99048","4,323505535",Nantes office market,3800,OFFICES,STANDARD,O2019,ACTUAL,INITIAL,V0,Internal,,2,Ave du Saint-Laurent,44800,Saint-Herblain,,France,,47.22245,-1.63327,SALE,10 500 000,2021-03-01,2021,0,MULTI_TENANT,TRANSACTION,,,
id_92,"34 Rue du Pre Gauchet, 44000 Nantes",0,12,,34,43,52,62,71,811,821,831,91,102,111,,132,141,"5,726898889","4,601397433","3,226042569","3,801866782","4,654493887","4,91648019","3,005975317","6,615873053","7,171125602","5,338723486","3,99048","4,332622289",Nantes office market,11688,OFFICES,STANDARD,O2019,ACTUAL,INITIAL,V0,Internal,,34,Rue du Pre Gauchet,44000,Nantes,,France,,47.21469,-1.5394,SALE,32 275 135,2021-09-06,2021,0,MULTI_TENANT,TRANSACTION,,,
id_93,"10 Rue Magdeleine, 44200 Nantes",0,12,,34,42,51,62,71,811,821,831,91,102,111,122,131,141,"4,157097173","4,393342377","3,296567636","3,777735576","4,623739955","5,197119638","3,016399821","6,590993313","7,184877602","5,345093716","3,99048","4,337899284",Nantes office market,5700,OFFICES,STANDARD,O2019,ACTUAL,INITIAL,V0,Internal,,10,Rue Magdeleine,44200,Nantes,,France,,47.20418,-1.56834,SALE,19 000 000,2021-10-08,2021,0,MULTI_TENANT,TRANSACTION,,,
id_94,"161 Blvd Salvador Allende, 44800 Saint-Herblain",0,12,,34,42,53,61,72,811,821,831,91,102,112,,131,141,"3,606843563","3,955862557","3,388785488","3,462635912","4,804323651","5,511856491","3,036564917","6,606068807","7,152044726","5,16697699","3,99048","4,309390896",Nantes office market,6040,OFFICES,STANDARD,O2019,ACTUAL,INITIAL,V0,Internal,,161,Blvd Salvador Allende,44800,Saint-Herblain,,France,,47.22007,-1.62639,SALE,15 942 030,2021-01-01,2021,0,MULTI_TENANT,TRANSACTION,,,
id_95,"1 Rue Eugene Tessier, 44000 Nantes",0,12,21,34,41,52,62,72,811,821,831,91,102,111,,131,141,"4,567132845","4,508831697","2,359106195","3,790554589","4,627322146","5,184710502","1,168291666","6,54675315","7,185775991","5,40815622","3,99048","4,343202407",Nantes office market,4320,OFFICES,STANDARD,O2019,ACTUAL,INITIAL,V0,Internal,,1,Rue Eugene Tessier,44000,Nantes,,France,,47.22556,-1.55757,SALE,11 700 000,2021-01-05,2021,0,MULTI_TENANT,TRANSACTION,,,
id_96,"10 Ave Des Canuts, 69120 Vaulx-en-Velin",0,12,,34,43,52,62,72,811,821,831,91,102,112,,131,141,"5,233835663","4,279295162","3,136835461","3,501253591","4,949714641","4,92461563","3,058704832","6,720467482","7,104699785","5,169973189","3,99048","4,17283843",Lyon office market,10734,OFFICES,STANDARD,O2019,ACTUAL,INITIAL,V0,Internal,,10,Ave Des Canuts,69120,Vaulx-en-Velin,,France,,45.76076,4.92233,SALE,23 811 245,2021-02-01,2021,0,MULTI_TENANT,TRANSACTION,,,
id_97,"66 Chemin du Moulin Carron, 69570 Dardilly",0,12,,34,42,52,61,72,811,821,831,91,102,112,122,132,141,"3,929034385","4,007554543","3,890927307","3,470715599","4,934128001","5,207460571","3,983807164","6,719820146","7,118269572","5,179721803","3,99048","4,156154481",Lyon office market,7215,OFFICES,STANDARD,O2019,ACTUAL,INITIAL,V0,Internal,,66,Chemin du Moulin Carron,69570,Dardilly,,France,,45.80275,4.76748,SALE,24 300 000,2021-10-11,2021,0,MULTI_TENANT,TRANSACTION,,,
id_98,"70 Cours Tolstoi, 69100 Villeurbanne",0,11,23,31,41,51,61,,811,821,831,92,102,112,121,131,141,"4,150157931","4,99167651","3,513422","4,257208575","4,621299413","4,897990112","2,996498249","6,602947299","7,228377259","5,459466934","3,99048","4,433151074",Lyon office market,3853,OFFICES,HAUSSMANNIEN,O2019,ACTUAL,INITIAL,V0,Internal,,70,Cours Tolstoi,69100,Villeurbanne,,France,,45.76309,4.87637,SALE,17 227 322,2021-04-01,2021,0,MULTI_TENANT,TRANSACTION,,,
id_99,"73 Ave Galline, 69100 Villeurbanne",0,12,21,34,41,54,62,,811,821,831,93,102,112,122,132,141,"4,576642034","4,987534765","3,91059777","4,208897052","4,630868201","4,766049937","3,924417502","6,635824709","7,222267506","5,421845045","3,99048","4,4153598",Lyon office market,2063,OFFICES,STANDARD,O2019,ACTUAL,INITIAL,V0,Internal,,73,Ave Galline,69100,Villeurbanne,,France,,45.77636,4.87032,SALE,8 550 000,2021-05-01,2021,0,MULTI_TENANT,TRANSACTION,,,
id_100,"20 Blvd Eugene Deruelle, 69003 Lyon",0,13,,32,41,53,63,72,811,821,831,93,102,111,121,131,141,"5,684727637","5,716202753","4,699494707","4,796532921","4,091931432","1,898617288","2,909060825","6,252792017","7,447625322","6,319091617","3,99048","4,451812017",Lyon office market,1000,OFFICES,TOUR_IGH,O2019,ACTUAL,INITIAL,V0,Internal,,20,Blvd Eugene Deruelle,69003,Lyon,,France,,45.76282,4.85396,SALE,5 300 000,2021-04-01,2021,0,MULTI_TENANT,TRANSACTION,,,
id_101,"93 Rue du Dauphine, 69800 Saint-Priest",0,12,,34,41,51,61,,811,821,831,93,102,112,,131,141,"3,491690904","3,960786061","3,422835619","3,348072046","4,91193041","5,333966194","3,059898007","6,675445855","7,123431376","5,187024207","3,99048","4,152766148",Lyon office market,1168,OFFICES,STANDARD,O2019,ACTUAL,INITIAL,V0,Internal,,93,Rue du Dauphine,69800,Saint-Priest,,France,,45.71575,4.9124,SALE,13 800 000,2021-03-01,2021,0,SINGLE_TENANT,TRANSACTION,,,
id_102,"10 Rue Mouillard, 69009 Lyon",0,12,21,35,41,52,61,,811,821,831,92,102,112,,131,141,"4,978693048","4,504698106","2,759617067","3,946601738","4,62658172","5,03357812","2,116787315","6,574305231","7,175872306","5,383989655","3,99048","4,368038539",Lyon office market,2998,OFFICES,STANDARD,O2019,ACTUAL,INITIAL,V0,Internal,,10,Rue Mouillard,69009,Lyon,,France,,45.78469,4.80482,SALE,13 389 552,2021-04-01,2021,0,MULTI_TENANT,TRANSACTION,,,
id_103,"23 Rue Paul Montrochet, 69002 Lyon",0,12,21,35,41,52,61,,811,821,831,93,102,112,122,131,141,"4,747441773","4,941501301","3,429176458","4,297947155","4,63005459","4,502868372","3,024163532","6,640301123","7,214713969","5,455308753","3,99048","4,574552918",Lyon office market,2200,OFFICES,STANDARD,O2019,ACTUAL,INITIAL,V0,Internal,,23,Rue Paul Montrochet,69002,Lyon,,France,,45.73881,4.82063,SALE,10 700 000,2021-11-02,2021,0,SINGLE_TENANT,TRANSACTION,,,
id_104,"23 Rue Paul Duvivier, 69007 Lyon",0,12,,34,42,53,62,,813,821,831,91,102,112,122,131,141,"4,353659875","5,26236743","3,224461529","4,638350434","4,724504512","4,521815647","2,122523901","6,653776721","7,27696454","5,712703704","3,99048","4,386528883",Lyon office market,6453,OFFICES,STANDARD,O2019,ACTUAL,INITIAL,V0,Internal,,23,Rue Paul Duvivier,69007,Lyon,,France,,45.74272,4.84747,SALE,34 000 000,2021-06-01,2021,0,MULTI_TENANT,TRANSACTION,,,
id_105,"370 Rue de Sans Souci, 69760 Limonest",0,12,,34,43,53,61,72,813,821,831,91,102,112,121,131,141,"4,274318204","4,082400006","3,402221216","3,469706427","4,944681425","5,183260477","3,063462821","6,676593351","7,129035895","5,213930733","3,99048","4,155072542",Lyon office market,11650,OFFICES,STANDARD,O2019,ACTUAL,INITIAL,V0,Internal,,370,Rue de Sans Souci,69760,Limonest,,France,,45.80541,4.77467,SALE,38 889 401,2021-04-01,2021,0,MULTI_TENANT,TRANSACTION,,,
id_106,"3783 Blvd Saint-Laurent, 69100 Villeurbanne",0,12,21,35,43,54,62,,811,821,831,91,102,112,,131,141,"5,020938964","5,016460648","2,393172853","4,218432266","4,646877572","4,746603571","1,186046274","6,571650048","7,214413538","5,507396425","3,99048","4,402987159",Lyon office market,13900,OFFICES,STANDARD,O2019,ACTUAL,INITIAL,V0,Internal,,3783,Blvd Saint-Laurent,69100,Villeurbanne,,France,,45.77768,4.868,SALE,62 171 871,2021-04-01,2021,0,MULTI_TENANT,TRANSACTION,,,
id_107,"173 Ave Jean Jaures, 69007 Lyon",0,12,,33,42,51,62,72,811,821,831,91,102,112,,131,141,"3,994038851","5,132193319","3,678236294","4,379231727","4,667964154","4,696887333","3,01111653","6,644714685","7,271902206","5,608538674","3,99048","4,391995719",Lyon office market,7844,OFFICES,STANDARD,O2019,ACTUAL,INITIAL,V0,Internal,,173,Ave Jean Jaures,69007,Lyon,,France,,45.73829,4.83794,SALE,42 477 175,2021-03-01,2021,0,MULTI_TENANT,TRANSACTION,,,
id_108,"17 Blvd Voltaire, 69170 Tarare",0,12,21,35,41,51,62,72,811,821,831,93,102,113,,131,141,"2,29903634","2,845377786","2,040275181","2,456031853","5,234906306","6,05577478","1,267589075","6,686723357","6,976749475","4,694220201","3,99048","4,024633241",Lyon office market,924,OFFICES,STANDARD,O2019,ACTUAL,INITIAL,V0,Internal,,17,Blvd Voltaire,69170,Tarare,,France,,45.89348,4.43629,SALE,5 300 000,2021-03-08,2021,0,SINGLE_TENANT,TRANSACTION,,,
id_109,"53 Rue Benjamin Baillaud, 31500 Toulouse",0,12,21,35,41,51,61,,811,821,831,91,102,113,,131,141,"5,056901078","4,588779718","2,299871222","3,960237936","4,671526042","4,954260579","1,200602232","6,580511986","7,189592368","5,468660408","3,99048","4,328100388",Toulouse office market,4330,OFFICES,STANDARD,O2019,ACTUAL,INITIAL,V0,Internal,,53,Rue Benjamin Baillaud,31500,Toulouse,,France,,43.6167417,1.4647662,SALE,"11854444,5",2021-04-01,2021,0,MULTI_TENANT,TRANSACTION,,,
id_110,"204 Rte D'albi, 31200 Toulouse",0,12,,,41,51,61,,811,821,831,91,102,113,,131,141,"4,813415618","4,500998045","2,345742778","3,846467282","4,646469909","5,058139982","1,193511089","6,558832003","7,191206146","5,449801603","3,99048","4,321990687",Toulouse office market,3509,OFFICES,STANDARD,O2019,ACTUAL,INITIAL,V0,Internal,,204,Rte D'albi,31200,Toulouse,,France,,43.64294,1.46779,SALE,"9614523,09",2021-01-01,2021,0,MULTI_TENANT,TRANSACTION,,,
id_111,"86 Cours de La Martinique, 33000 Bordeaux",0,11,,32,41,51,61,72,811,821,831,93,102,111,121,131,141,"4,978386911","4,794833445","3,542146178","4,069147377","4,5529427","4,743983261","2,943470909","6,635326477","7,187979621","5,350562117","3,99048","4,707358166",Bordeaux office market,1500,OFFICES,HAUSSMANNIEN,O2019,ACTUAL,INITIAL,V0,Internal,,86,Cours de La Martinique,33000,Bordeaux,,France,,44.85444,-0.57263,SALE,4 000 000,2021-02-16,2021,0,MULTI_TENANT,TRANSACTION,,,
id_112,"26 Ave Tony Garnier, 69007 Lyons",0,12,,34,41,52,62,,811,821,831,93,102,112,122,131,141,"4,246144551","4,792703906","2,902237209","4,109371892","4,63399264","4,875236964","2,115283941","6,588442469","7,225513925","5,49584098","3,99048","4,375404905",Lyon office market,934,OFFICES,STANDARD,O2019,ACTUAL,INITIAL,V0,Internal,,26,Ave Tony Garnier,69007,Lyons,,France,,45.72813,4.82378,SALE,3 600 000,2021-01-01,2021,0,MULTI_TENANT,TRANSACTION,,,
id_113,"24 Rue de La Gare, 69009 Lyons",0,12,23,34,41,52,61,72,811,821,831,93,102,112,121,131,141,"4,07185091","4,449048735","3,333607221","3,98297266","4,600020986","5,180231961","3,02385297","6,591523022","7,180672454","5,356263974","3,99048","4,39189853",Lyon office market,746,OFFICES,STANDARD,O2019,ACTUAL,INITIAL,V0,Internal,,24,Rue de La Gare,69009,Lyons,,France,,45.77867,4.80017,SALE,2 900 000,2021-01-01,2021,0,MULTI_TENANT,TRANSACTION,,,
id_114,"300 Rte Nationale, 69760 Limonest",0,12,,33,41,52,62,71,811,821,831,93,102,112,121,131,141,"3,792887634","3,986173815","3,390798822","3,381566492","4,92068191","5,27407522","3,059637901","6,688843144","7,122205248","5,198126418","3,99048","4,151079133",Lyon office market,611,OFFICES,STANDARD,O2019,ACTUAL,INITIAL,V0,Internal,,300,Rte Nationale,69760,Limonest,,France,,45.80982,4.77983,SALE,3 500 000,2021-02-01,2021,0,MULTI_TENANT,TRANSACTION,,,
id_115,"4 Rue Pierre Gilles de Gennes, 69007 Lyons",0,12,,34,41,52,61,71,811,821,831,93,102,112,121,131,141,"3,783138972","4,741276649","4,052946861","4,195173908","4,645262259","4,917566495","3,952260502","6,63300429","7,233687352","5,476323374","3,99048","4,376387418",Lyon office market,837,OFFICES,STANDARD,O2019,ACTUAL,INITIAL,V0,Internal,,4,Rue Pierre Gilles de Gennes,69007,Lyons,,France,,45.72455,4.84394,SALE,3 300 000,2021-04-01,2021,0,MULTI_TENANT,TRANSACTION,,,
id_116,"56 Rue Bonte Pollet, 59000 Lille",0,12,,33,41,52,62,72,812,821,831,93,102,111,,131,141,"3,804673781","4,511669119","3,466226288","3,936814752","4,581694965","5,210260909","3,016373818","6,550376695","7,218959647","5,39551765","3,99048","4,405853091",Lille office market,1124,OFFICES,STANDARD,O2019,ACTUAL,INITIAL,V0,Internal,,56,Rue Bonte Pollet,59000,Lille,,France,,50.62703,3.03219,SALE,3 800 000,2021-11-16,2021,0,MULTI_TENANT,TRANSACTION,,,
id_117,"15 Rue du Plouvier, 59175 Templemars",0,12,23,33,41,52,61,72,811,821,831,93,102,113,121,131,141,"3,533816129","3,748633883","3,874535986","3,320503728","4,751784337","5,708862476","3,945015062","6,575236343","7,143621959","5,069045128","3,99048","4,335983765",Lille office market,1575,OFFICES,STANDARD,O2019,ACTUAL,INITIAL,V0,Internal,,15,Rue du Plouvier,59175,Templemars,,France,,50.56328,3.06585,SALE,4 900 000,2021-04-28,2021,0,MULTI_TENANT,TRANSACTION,,,
id_118,"245 Blvd de Tournai, 59650 Villeneuve-d'Ascq",0,12,,33,43,53,62,71,812,821,831,91,102,112,122,131,141,"3,757593919","3,880542561","3,377575953","3,346311107","4,751584821","5,681763671","3,011550607","6,563329158","7,140012128","5,088544423","3,99048","4,353455634",Lille office market,19540,OFFICES,STANDARD,O2019,ACTUAL,INITIAL,V0,Internal,,245,Blvd de Tournai,59650,Villeneuve-d'Ascq,,France,,50.61311,3.1297,SALE,63 784 050,2021-04-30,2021,0,SINGLE_TENANT,TRANSACTION,,,